[
    {
        "id": 0,
        "imei": 123456789012300,
        "tel": "Tel_0",
        "name": "Name_0",
        "car_number": "CarNumber_0",
        "current_location": {
            "latitude": 0,
            "longitude": 0,
            "address": "Address_0"
        }
    },
    {
        "id": 1,
        "imei": 123456789012301,
        "tel": "Tel_1",
        "name": "Name_1",
        "car_number": "CarNumber_1",
        "current_location": {
            "latitude": 0,
            "longitude": 0,
            "address": "Address_1"
        }
    },
    {
        "id": 2,
        "imei": 123456789012302,
        "tel": "Tel_2",
        "name": "Name_2",
        "car_number": "CarNumber_2",
        "current_location": {
            "latitude": 0,
            "longitude": 0,
            "address": "Address_2"
        }
    },
    {
        "id": 3,
        "imei": 123456789012303,
        "tel": "Tel_3",
        "name": "Name_3",
        "car_number": "CarNumber_3",
        "current_location": {
            "latitude": 0,
            "longitude": 0,
            "address": "Address_3"
        }
    },
    {
        "id": 4,
        "imei": 123456789012304,
        "tel": "Tel_4",
        "name": "Name_4",
        "car_number": "CarNumber_4",
        "current_location": {
            "latitude": 0,
            "longitude": 0,
            "address": "Address_4"
        }
    },
    {
        "id": 5,
        "imei": 123456789012305,
        "tel": "Tel_5",
        "name": "Name_5",
        "car_number": "CarNumber_5",
        "current_location": {
            "latitude": 0,
            "longitude": 0,
            "address": "Address_5"
        }
    },
    {
        "id": 6,
        "imei": 123456789012306,
        "tel": "Tel_6",
        "name": "Name_6",
        "car_number": "CarNumber_6",
        "current_location": {
            "latitude": 0,
            "longitude": 0,
            "address": "Address_6"
        }
    },
    {
        "id": 7,
        "imei": 123456789012307,
        "tel": "Tel_7",
        "name": "Name_7",
        "car_number": "CarNumber_7",
        "current_location": {
            "latitude": 0,
            "longitude": 0,
            "address": "Address_7"
        }
    },
    {
        "id": 8,
        "imei": 123456789012308,
        "tel": "Tel_8",
        "name": "Name_8",
        "car_number": "CarNumber_8",
        "current_location": {
            "latitude": 0,
            "longitude": 0,
            "address": "Address_8"
        }
    },
    {
        "id": 9,
        "imei": 123456789012309,
        "tel": "Tel_9",
        "name": "Name_9",
        "car_number": "CarNumber_9",
        "current_location": {
            "latitude": 0,
            "longitude": 0,
            "address": "Address_9"
        }
    },
    {
        "id": 10,
        "imei": 123456789012310,
        "tel": "Tel_10",
        "name": "Name_10",
        "car_number": "CarNumber_10",
        "current_location": {
            "latitude": 0,
            "longitude": 0,
            "address": "Address_10"
        }
    },
    {
        "id": 11,
        "imei": 123456789012311,
        "tel": "Tel_11",
        "name": "Name_11",
        "car_number": "CarNumber_11",
        "current_location": {
            "latitude": 0,
            "longitude": 0,
            "address": "Address_11"
        }
    },
    {
        "id": 12,
        "imei": 123456789012312,
        "tel": "Tel_12",
        "name": "Name_12",
        "car_number": "CarNumber_12",
        "current_location": {
            "latitude": 0,
            "longitude": 0,
            "address": "Address_12"
        }
    },
    {
        "id": 13,
        "imei": 123456789012313,
        "tel": "Tel_13",
        "name": "Name_13",
        "car_number": "CarNumber_13",
        "current_location": {
            "latitude": 0,
            "longitude": 0,
            "address": "Address_13"
        }
    },
    {
        "id": 14,
        "imei": 123456789012314,
        "tel": "Tel_14",
        "name": "Name_14",
        "car_number": "CarNumber_14",
        "current_location": {
            "latitude": 0,
            "longitude": 0,
            "address": "Address_14"
        }
    },
    {
        "id": 15,
        "imei": 123456789012315,
        "tel": "Tel_15",
        "name": "Name_15",
        "car_number": "CarNumber_15",
        "current_location": {
            "latitude": 0,
            "longitude": 0,
            "address": "Address_15"
        }
    },
    {
        "id": 16,
        "imei": 123456789012316,
        "tel": "Tel_16",
        "name": "Name_16",
        "car_number": "CarNumber_16",
        "current_location": {
            "latitude": 0,
            "longitude": 0,
            "address": "Address_16"
        }
    },
    {
        "id": 17,
        "imei": 123456789012317,
        "tel": "Tel_17",
        "name": "Name_17",
        "car_number": "CarNumber_17",
        "current_location": {
            "latitude": 0,
            "longitude": 0,
            "address": "Address_17"
        }
    },
    {
        "id": 18,
        "imei": 123456789012318,
        "tel": "Tel_18",
        "name": "Name_18",
        "car_number": "CarNumber_18",
        "current_location": {
            "latitude": 0,
            "longitude": 0,
            "address": "Address_18"
        }
    },
    {
        "id": 19,
        "imei": 123456789012319,
        "tel": "Tel_19",
        "name": "Name_19",
        "car_number": "CarNumber_19",
        "current_location": {
            "latitude": 0,
            "longitude": 0,
            "address": "Address_19"
        }
    }
]